[
  {
    "id": 145,
    "name": "Tangadan Falls",
    "imageUrl": "https://raw.githubusercontent.com/Valdezvonne/tourist/master/images/tangadan.JPG",
    "priceCurrency": "₱",
    "price": 30,
    "lat": 16.6436,
    "lng": 120.4488
  },
  {
    "id": 148,
    "name": "Ma Cho Temple",
    "imageUrl": "https://raw.githubusercontent.com/Valdezvonne/tourist/master/images/macho.JPG?",
    "priceCurrency": "₱",
    "price":10,
    "lat": 16.6212,
    "lng": 120.3175
  },
  {
    "id": 201,
    "name": "Pindangan Ruins",
    "imageUrl": "https://raw.githubusercontent.com/Valdezvonne/tourist/master/images/PR.jpg",
    "priceCurrency": "₱",
    "price": 30,
    "lat": 16.5881,
    "lng": 120.3146
  },
  {
    "id": 205,
    "name": "Tuddingan Falls",
    "imageUrl": "https://raw.githubusercontent.com/Valdezvonne/tourist/master/images/La-Union-Tuddingan-Falls3.jpg",
    "priceCurrency": "₱",
    "price": 50,
    "lat": 16.5752,
    "lng": 120.4174
  },
  {
    "id": 210,
    "name": "San Juan Surfing Capital",
    "imageUrl": "https://raw.githubusercontent.com/Valdezvonne/tourist/master/images/SanJuan.jpg",
    "priceCurrency": "₱",
    "price": 30,
    "lat": 16.6571,
    "lng": 120.3202
  },
  {
    "id": 211,
    "name": "Bohemian and Chic in Paris",
    "imageUrl": "https://raw.githubusercontent.com/lewagon/flats-boilerplate/master/images/flat6.jpg",
    "priceCurrency": "₱",
    "price": 135,
    "lat": 48.827855,
    "lng": 2.350774
  }
]
