[
  {
    "id": 145,
    "name": "Tangadan Falls",
    "imageUrl": "https://raw.githubusercontent.com/Valdezvonne/tourist/master/images/tangadan.JPG",
    "priceCurrency": "₱",
    "price": 30,
    "lat": 16.6436,
    "lng": 120.4488
  },
  {
    "id": 148,
    "name": "Ma Cho Temple",
    "imageUrl": "https://raw.githubusercontent.com/Valdezvonne/tourist/master/images/macho.JPG?",
    "priceCurrency": "₱",
    "price":10,
    "lat": 16.6212,
    "lng": 120.3175
  },
  {
    "id": 201,
    "name": "Pindangan Ruins",
    "imageUrl": "https://raw.githubusercontent.com/Valdezvonne/tourist/master/images/PR.jpg",
    "priceCurrency": "₱",
    "price": 30,
    "lat": 16.5881,
    "lng": 120.3146
  },
  {
    "id": 205,
    "name": "Tuddingan Falls",
    "imageUrl": "https://raw.githubusercontent.com/Valdezvonne/tourist/master/images/La-Union-Tuddingan-Falls3.jpg",
    "priceCurrency": "₱",
    "price": 50,
    "lat": 16.5752,
    "lng": 120.4174
  },
  {
    "id": 210,
    "name": "San Juan Surfing Capital",
    "imageUrl": "https://raw.githubusercontent.com/Valdezvonne/tourist/master/images/SanJuan.jpg",
    "priceCurrency": "₱",
    "price": 30,
    "lat": 16.6571,
    "lng": 120.3202
  },
  {
    "id": 211,
    "name": "La Union Botanical and Zoological Garden",
    "imageUrl": "https://raw.githubusercontent.com/Valdezvonne/tourist/master/images/13445705827WoqnaRi.jpg",
    "priceCurrency": "₱",
    "price": 10,
    "lat": 16.5873,
    "lng": 120.3659
  }
  {
    "id": 201,
    "name": "Pindangan Ruins",
    "imageUrl": "https://raw.githubusercontent.com/Valdezvonne/tourist/master/images/Bascil%20Bridge.jpg?raw=true",
    "priceCurrency": "₱",
    "price": 20,
    "lat": 16.6183,
    "lng": 120.3632
  },
]
